Number,Name,PROVINCE,LOCATION,LAT,LON
1,Bang Wa Melon • บางหว้าเมล่อน,กรุงเทพมหานคร,450 ถนนราชพฤกษ์ บางจาก ภาษีเจริญ กรุงเทพมหานคร 10160,13.730599,100.450181
2,แสงตะวันฟาร์ม เมล่อนสาย4,กรุงเทพมหานคร,แขวง ทวีวัฒนา เขตทวีวัฒนา กรุงเทพมหานคร 10170,13.745634,100.33791
3,เมล่อน สามพราน Melon Samphran,นครปฐม,30/40 หมู่ 4 ซอย บางกระทึก 9 บางกระทึก สามพราน นครปฐม 73210,13.775608,100.308158
4,ณมณฑ์ เมล่อน ฟาร์ม สามพราน,นครปฐม,เลขที่ 75 หมู่6 ตำบล บางช้าง อำเภอสามพราน นครปฐม 73110,13.694765,100.201304
5,I am MELON farm,นครปฐม,47/8 หมู่ 1 ซอย สามพราน 14 ตำบล ท่าตลาด อำเภอสามพราน นครปฐม 73110,13.748587,100.21399
6,ศศิพิมพ์เมล่อนฟาร์ม,สมุทรสาคร,ตำบล บางหญ้าแพรก อำเภอเมืองสมุทรสาคร สมุทรสาคร 74000,13.532287,100.289751
7,Pop Farm Melon & Hydro,สมุทรสาคร,7/165 ตำบล โคกขาม อำเภอเมืองสมุทรสาคร สมุทรสาคร 74000,13.514519,100.30722
8,KUBORO MELON FARM,กรุงเทพมหานคร,แขวง ฉิมพลี เขตตลิ่งชัน กรุงเทพมหานคร 10170,13.775454,100.443143
9,ไร่เหมือนจันทร์,กรุงเทพมหานคร,166/6 ถนน คลองทวีวัฒนา แขวง บางไผ่ เขตบางแค กรุงเทพมหานคร 10160,13.738425,100.359407